{
"type": "FeatureCollection",
"crs": { "type": "name", "properties": { "name": "urn:ogc:def:crs:OGC:1.3:CRS84" } },
                                                                                                                                  
"features": [
{ "type": "Feature", "properties": { "Item_No": 1, "Project_Na": "Hagarbul", "Ward": "Dertu", "Elev_m": 178, "Northing": 0.310056, "Easting": 40.011778, "Location": "Hagarbul", "WUA_Commit": "Shueb Tawakal", "Population": "4,500", "Populati_1": "55,000", "Populati_2": 0.000000, "Populati_3": 55.000000, "Status": "operational" }, "geometry": { "type": "Point", "coordinates": [ 40.01177778, 0.310055556 ] } },
{ "type": "Feature", "properties": { "Item_No": 2, "Project_Na": "Liboi", "Ward": "Liboi", "Elev_m": 87, "Northing": 0.352278, "Easting": 40.873694, "Location": "Liboi", "WUA_Commit": "Dekow Duale", "Population": "25,500", "Populati_1": "60,000", "Populati_2": 0.000000, "Populati_3": 60.000000, "Status": "Ditto" }, "geometry": { "type": "Point", "coordinates": [ 40.87369444, 0.352277778 ] } },
{ "type": "Feature", "properties": { "Item_No": 3, "Project_Na": "Bulla Sudi", "Ward": "Dadaab", "Elev_m": 139, "Northing": 0.056583, "Easting": 40.306694, "Location": "Dadaab", "WUA_Commit": "-", "Population": "2,500", "Populati_1": "30,000", "Populati_2": 0.000000, "Populati_3": 30.000000, "Status": "Ditto" }, "geometry": { "type": "Point", "coordinates": [ 40.30669444, 0.056583333 ] } },
{ "type": "Feature", "properties": { "Item_No": 4, "Project_Na": "Banana Kokar", "Ward": "Damajale", "Elev_m": 135, "Northing": 0.022833, "Easting": 40.577417, "Location": "Dadaab", "WUA_Commit": "Imam Ibrahim", "Population": "5,000", "Populati_1": "40,000", "Populati_2": 0.000000, "Populati_3": 40.000000, "Status": "Ditto" }, "geometry": { "type": "Point", "coordinates": [ 40.57741667, 0.022833333 ] } },
{ "type": "Feature", "properties": { "Item_No": 5, "Project_Na": "Labisigale", "Ward": "Labisigale", "Elev_m": 202, "Northing": 0.144639, "Easting": 39.683139, "Location": "Labisigale", "WUA_Commit": "Rashid Idle Aden", "Population": "5,600", "Populati_1": "50,000", "Populati_2": 0.000000, "Populati_3": 50.000000, "Status": "Ditto" }, "geometry": { "type": "Point", "coordinates": [ 39.68313889, 0.144638889 ] } },
{ "type": "Feature", "properties": { "Item_No": 6, "Project_Na": "Dadaab", "Ward": "Dadaab", "Elev_m": 139, "Northing": 0.056583, "Easting": 40.306694, "Location": "Dadaab", "WUA_Commit": "Abdullahi Sugow", "Population": "6,000", "Populati_1": "15,000", "Populati_2": 0.000000, "Populati_3": 15.000000, "Status": "Ditto" }, "geometry": { "type": "Point", "coordinates": [ 40.30669444, 0.056583333 ] } },
{ "type": "Feature", "properties": { "Item_No": 7, "Project_Na": "Mathagesi", "Ward": "Mathegesi", "Elev_m": 123, "Northing": 0.160889, "Easting": 40.430250, "Location": "Dadaab", "WUA_Commit": "Mohamed  Jelley", "Population": "11,000", "Populati_1": "70,000", "Populati_2": 0.000000, "Populati_3": 70.000000, "Status": "Ditto" }, "geometry": { "type": "Point", "coordinates": [ 40.43025, 0.160888889 ] } },
{ "type": "Feature", "properties": { "Item_No": 8, "Project_Na": "Morothila", "Ward": "Dadaab", "Elev_m": 155, "Northing": 0.159833, "Easting": 40.091056, "Location": "Dadaab", "WUA_Commit": "Hassan Aden", "Population": "2,500", "Populati_1": "14,000", "Populati_2": 0.000000, "Populati_3": 14.000000, "Status": "Ditto" }, "geometry": { "type": "Point", "coordinates": [ 40.09105556, 0.159833333 ] } },
{ "type": "Feature", "properties": { "Item_No": 9, "Project_Na": "Boransis", "Ward": "Abakaile", "Elev_m": 163, "Northing": 0.296000, "Easting": 39.840528, "Location": "Dadaab", "WUA_Commit": "-", "Population": "3,450", "Populati_1": "16,000", "Populati_2": 0.000000, "Populati_3": 16.000000, "Status": "Ditto" }, "geometry": { "type": "Point", "coordinates": [ 39.84052778, 0.296 ] } },
{ "type": "Feature", "properties": { "Item_No": 10, "Project_Na": "Libahlow", "Ward": "Abakaile", "Elev_m": 140, "Northing": 0.308000, "Easting": 40.067639, "Location": "Abakaile", "WUA_Commit": "Hassan Sugow", "Population": "5,500", "Populati_1": "17,500", "Populati_2": 0.000000, "Populati_3": 0.000000, "Status": "Ditto" }, "geometry": { "type": "Point", "coordinates": [ 40.06763889, 0.308 ] } },
{ "type": "Feature", "properties": { "Item_No": 11, "Project_Na": "Damajale", "Ward": "Damajale", "Elev_m": 123, "Northing": 0.103889, "Easting": 40.788417, "Location": "Damajale", "WUA_Commit": "Issack Haye", "Population": "18,000", "Populati_1": "75,000", "Populati_2": 0.000000, "Populati_3": 75.000000, "Status": "Ditto" }, "geometry": { "type": "Point", "coordinates": [ 40.78841667, 0.103888889 ] } },
{ "type": "Feature", "properties": { "Item_No": 12, "Project_Na": "Hamey", "Ward": "Damajale", "Elev_m": 107, "Northing": 0.120139, "Easting": 40.900889, "Location": "Hamey", "WUA_Commit": "Dagane Bunow", "Population": "15,000", "Populati_1": "60,000", "Populati_2": 0.000000, "Populati_3": 60.000000, "Status": "Ditto" }, "geometry": { "type": "Point", "coordinates": [ 40.90088889, 0.120138889 ] } },
{ "type": "Feature", "properties": { "Item_No": 13, "Project_Na": "Bahuri", "Ward": "Dertu", "Elev_m": 202, "Northing": 0.144639, "Easting": 39.683139, "Location": "Bahuri", "WUA_Commit": "--", "Population": "-", "Populati_1": "-", "Populati_2": 0.000000, "Populati_3": 0.000000, "Status": "Deserted" }, "geometry": { "type": "Point", "coordinates": [ 39.68313889, 0.144638889 ] } },
{ "type": "Feature", "properties": { "Item_No": 14, "Project_Na": "Deg Elema", "Ward": "Liboi", "Elev_m": 88, "Northing": 0.302306, "Easting": 40.982528, "Location": "Deg Elema", "WUA_Commit": "-", "Population": "5,400", "Populati_1": "45,000", "Populati_2": 0.000000, "Populati_3": 45.000000, "Status": "Operational" }, "geometry": { "type": "Point", "coordinates": [ 40.98252778, 0.302305556 ] } },
{ "type": "Feature", "properties": { "Item_No": 15, "Project_Na": "Kiwanja Yarey", "Ward": "Damajale", "Elev_m": 139, "Northing": 0.115194, "Easting": 40.702333, "Location": "Kiwanja Yarey", "WUA_Commit": "-", "Population": "2,200", "Populati_1": "30,000", "Populati_2": 0.000000, "Populati_3": 30.000000, "Status": "Ditto" }, "geometry": { "type": "Point", "coordinates": [ 40.70233333, 0.115194444 ] } },
{ "type": "Feature", "properties": { "Item_No": 16, "Project_Na": "Kadagso", "Ward": "Liboi", "Elev_m": 119, "Northing": 0.202694, "Easting": 40.593056, "Location": "Kulan", "WUA_Commit": "-", "Population": "5,500", "Populati_1": "17,500", "Populati_2": 0.000000, "Populati_3": 0.000000, "Status": "Ditto" }, "geometry": { "type": "Point", "coordinates": [ 40.59305556, 0.202694444 ] } },
{ "type": "Feature", "properties": { "Item_No": 17, "Project_Na": "Godliye Farm", "Ward": "Dadaab", "Elev_m": 133, "Northing": 0.060361, "Easting": 40.312806, "Location": "Dadaab", "WUA_Commit": "-", "Population": "1,500", "Populati_1": "3,500", "Populati_2": 0.000000, "Populati_3": 0.000000, "Status": "Ditto" }, "geometry": { "type": "Point", "coordinates": [ 40.31280556, 0.060361111 ] } },
{ "type": "Feature", "properties": { "Item_No": 18, "Project_Na": "Shelbub", "Ward": "Damajale", "Elev_m": 147, "Northing": 0.009028, "Easting": 40.580083, "Location": "Damajale", "WUA_Commit": "-", "Population": "3,500", "Populati_1": "45,000", "Populati_2": 0.000000, "Populati_3": 45.000000, "Status": "Ditto" }, "geometry": { "type": "Point", "coordinates": [ 40.58008333, 0.009027778 ] } },
{ "type": "Feature", "properties": { "Item_No": 19, "Project_Na": "Ali Qarsade", "Ward": "Abakaile", "Elev_m": 156, "Northing": 0.029306, "Easting": 40.576833, "Location": "Abakaile", "WUA_Commit": "-", "Population": "4,500", "Populati_1": "35,000", "Populati_2": 0.000000, "Populati_3": 35.000000, "Status": "Ditto" }, "geometry": { "type": "Point", "coordinates": [ 40.57683333, 0.029305556 ] } },
{ "type": "Feature", "properties": { "Item_No": 20, "Project_Na": "Kokar", "Ward": "Damajale", "Elev_m": 145, "Northing": 0.060361, "Easting": 40.312806, "Location": "Damajale", "WUA_Commit": "Imam  Ibrahim", "Population": "6,000", "Populati_1": "45,000", "Populati_2": 0.000000, "Populati_3": 45.000000, "Status": "Ditto" }, "geometry": { "type": "Point", "coordinates": [ 40.31280556, 0.060361111 ] } },
{ "type": "Feature", "properties": { "Item_No": 21, "Project_Na": "Kulan", "Ward": "Liboi", "Elev_m": 106, "Northing": 0.216000, "Easting": 40.640167, "Location": "Kulan", "WUA_Commit": "Khamis Hamud", "Population": "18,500", "Populati_1": "80,000", "Populati_2": 0.000000, "Populati_3": 80.000000, "Status": "Ditto" }, "geometry": { "type": "Point", "coordinates": [ 40.64016667, 0.216 ] } },
{ "type": "Feature", "properties": { "Item_No": 22, "Project_Na": "Bulla Nyanya", "Ward": "Dadaab", "Elev_m": 105, "Northing": 0.160361, "Easting": 40.777972, "Location": "Dadaab", "WUA_Commit": "Abdi Khalif", "Population": "3,200", "Populati_1": "5,550", "Populati_2": 0.000000, "Populati_3": 0.000000, "Status": "Ditto" }, "geometry": { "type": "Point", "coordinates": [ 40.77797222, 0.160361111 ] } },
{ "type": "Feature", "properties": { "Item_No": 23, "Project_Na": "Dadaab", "Ward": "Dadaab", "Elev_m": 126, "Northing": 0.048219, "Easting": 40.307636, "Location": "There are 4 Boreholes in the same area", "WUA_Commit": "Abdullahi Sugow", "Population": "41,550", "Populati_1": "106,000", "Populati_2": 0.000000, "Populati_3": 0.000000, "Status": "Operational" }, "geometry": { "type": "Point", "coordinates": [ 40.30763611, 0.048219444 ] } },
{ "type": "Feature", "properties": { "Item_No": 24, "Project_Na": "Saretho", "Ward": "Saretho", "Elev_m": 157, "Northing": 0.032647, "Easting": 40.151844, "Location": "Saretho", "WUA_Commit": "Abdullahi Ibrahim", "Population": "16,000", "Populati_1": "59,500", "Populati_2": 0.000000, "Populati_3": 0.000000, "Status": "Ditto" }, "geometry": { "type": "Point", "coordinates": [ 40.15184444, 0.032647222 ] } },
{ "type": "Feature", "properties": { "Item_No": 29, "Project_Na": "Hagarbul B\/H 2", "Ward": "Dertu", "Elev_m": 178, "Northing": 0.310056, "Easting": 40.011778, "Location": "Hagarbul", "WUA_Commit": "Shueb Tawakal", "Population": "15,000", "Populati_1": "60,000", "Populati_2": 0.000000, "Populati_3": 60.000000, "Status": "Ditto" }, "geometry": { "type": "Point", "coordinates": [ 40.01177778, 0.310055556 ] } },
{ "type": "Feature", "properties": { "Item_No": 30, "Project_Na": "Kumahumato", "Ward": null, "Elev_m": 139, "Northing": 0.310361, "Easting": 40.077336, "Location": "There are 3 Boreholes in the same area", "WUA_Commit": "Mohamed Abdi", "Population": "27,050", "Populati_1": "115,000", "Populati_2": 0.000000, "Populati_3": 0.000000, "Status": "Operational" }, "geometry": { "type": "Point", "coordinates": [ 40.07733611, 0.310361111 ] } },
{ "type": "Feature", "properties": { "Item_No": 31, "Project_Na": "Alikune", "Ward": "Alikune", "Elev_m": 146, "Northing": 0.358356, "Easting": 40.012644, "Location": "Three Boreholes close to each other", "WUA_Commit": "Garane Nunow", "Population": "13350", "Populati_1": "69,000", "Populati_2": 0.000000, "Populati_3": 69.000000, "Status": "Ditto" }, "geometry": { "type": "Point", "coordinates": [ 40.01264444, 0.358355556 ] } },
{ "type": "Feature", "properties": { "Item_No": 32, "Project_Na": "Dertu B\/H", "Ward": "Dertu", "Elev_m": 147, "Northing": 0.245258, "Easting": 40.025428, "Location": "Two boreholes closer to each other", "WUA_Commit": "Hassan Buto", "Population": "24,000", "Populati_1": "20,000", "Populati_2": 0.000000, "Populati_3": 20.000000, "Status": "Ditto" }, "geometry": { "type": "Point", "coordinates": [ 40.02542778, 0.245258333 ] } },
{ "type": "Feature", "properties": { "Item_No": 33, "Project_Na": "Dertu B\/H", "Ward": "Dertu", "Elev_m": 179, "Northing": 0.131658, "Easting": 39.886717, "Location": "Two boreholes close to each other", "WUA_Commit": "Hassan Buto", "Population": "7,000", "Populati_1": "30,500", "Populati_2": 0.000000, "Populati_3": 0.000000, "Status": "Ditto" }, "geometry": { "type": "Point", "coordinates": [ 39.88671667, 0.131658333 ] } },
{ "type": "Feature", "properties": { "Item_No": 34, "Project_Na": "Maleyle I", "Ward": "Kulan", "Elev_m": 123, "Northing": 0.148778, "Easting": 40.716122, "Location": "Kulan", "WUA_Commit": "Mudaf Sheikh", "Population": "8,500", "Populati_1": "36,000", "Populati_2": 0.000000, "Populati_3": 36.000000, "Status": "Operational" }, "geometry": { "type": "Point", "coordinates": [ 40.71612222, 0.148777778 ] } },
{ "type": "Feature", "properties": { "Item_No": 42, "Project_Na": "Maleyle II", "Ward": "Kulan", "Elev_m": 107, "Northing": 0.200856, "Easting": 40.697192, "Location": "Kulan", "WUA_Commit": "Mohamed Arte", "Population": "6,700", "Populati_1": "25,000", "Populati_2": 0.000000, "Populati_3": 25.000000, "Status": "Ditto" }, "geometry": { "type": "Point", "coordinates": [ 40.69719167, 0.200855556 ] } }
]
}
